[

{

"id": "1182",

"is_active": true,

"is_point_issue": true,

"is_shipment": true,

"name": "Аптека МК - Березник - П.Виноградова 76 к 1",

"address": "п.Березник,ул.П.Виноградова, д. 76, кор. 1",

"phone": "8 (818) 312-23-13",

"longitude": 42.724486,

"latitude": 62.851563,

"schedule": "Пн-Пт 9:00-18:00 Сб-Вс 10:00-15:00 ",

"metro": "",

"hub": false,

"region": "BEREZNIK",

"operating_mode": [

{

"Понедельник": "[09:00,18:00]"

},

{

"Вторник": "[09:00,18:00]"

},

{

"Среда": "[09:00,18:00]"

},

{

"Четверг": "[09:00,18:00]"

},

{

"Пятница": "[09:00,18:00]"

},

{

"Суббота": "[10:00,15:00]"

},

{

"Воскресенье": "[10:00,15:00]"

}

]

},

{

"id": "1222",

"is_active": true,

"is_point_issue": true,

"is_shipment": true,

"name": "ДА - Архангельск - Ломоносова 286",

"address": "г. Архангельск, пр. Ломоносова, д. 286",

"phone": "8 (818) 224-00-45",

"longitude": 40.540322,

"latitude": 64.562188,

"schedule": "Пн-Вс 9:00-21:00",

"metro": "",

"hub": false,

"region": "BASE",

"operating_mode": [

{

"Понедельник": "[09:00,21:00]"

},

{

"Вторник": "[09:00,21:00]"

},

{

"Среда": "[09:00,21:00]"

},

{

"Четверг": "[09:00,21:00]"

},

{

"Пятница": "[09:00,21:00]"

},

{

"Суббота": "[09:00,21:00]"

},

{

"Воскресенье": "[09:00,21:00]"

}

]

},

{

"id": "1523",

"is_active": true,

"is_point_issue": true,

"is_shipment": true,

"name": "ДА - Архангельск - Ломоносова 81",

"address": "г. Архангельск, ул. Ломоносова, д. 81 ",

"phone": "8 (8182) 42-35-70",

"longitude": 40.538507,

"latitude": 64.533264,

"schedule": "Пн-Вс 9:00-21:00",

"metro": "",

"hub": false,

"region": "BASE",

"operating_mode": [

{

"Понедельник": "[09:00,21:00]"

},

{

"Вторник": "[09:00,21:00]"

},

{

"Среда": "[09:00,21:00]"

},

{

"Четверг": "[09:00,21:00]"

},

{

"Пятница": "[09:00,21:00]"

},

{

"Суббота": "[09:00,21:00]"

},

{

"Воскресенье": "[09:00,21:00]"

}

]

},

{

"id": "1524",

"is_active": true,

"is_point_issue": true,

"is_shipment": true,

"name": "ДА - Архангельск - Затон - Речников 1/1",

"address": "г. Архангельск, ул. Речников, д. 1",

"phone": "8 (818) 269-86-71",

"longitude": 40.657139,

"latitude": 64.458795,

"schedule": "Пн-Вс 09:00-20:00 ",

"metro": "",

"hub": false,

"region": "BASE",

"operating_mode": [

{

"Понедельник": "[09:00,20:00]"

},

{

"Вторник": "[09:00,20:00]"

},

{

"Среда": "[09:00,20:00]"

},

{

"Четверг": "[09:00,20:00]"

},

{

"Пятница": "[09:00,20:00]"

},

{

"Суббота": "[09:00,20:00]"

},

{

"Воскресенье": "[09:00,20:00]"

}

]

},

{

"id": "1525",

"is_active": true,

"is_point_issue": true,

"is_shipment": true,

"name": "ДА - Онега - Победы 14",

"address": "Онежский р-н, г. Онега, пр. Победы, д.14",

"phone": "8 (818) 397-39-46",

"longitude": 38.099483,

"latitude": 63.904769,

"schedule": "Пн-Пт 09:00-19:00  Сб 09:00-17:00 Вс - выходной",

"metro": "",

"hub": false,

"region": "ONEGA",

"operating_mode": [

{

"Понедельник": "[09:00,19:00]"

},

{

"Вторник": "[09:00,19:00]"

},

{

"Среда": "[09:00,19:00]"

},

{

"Четверг": "[09:00,19:00]"

},

{

"Пятница": "[09:00,19:00]"

},

{

"Суббота": "[09:00,17:00]"

}

]

},

{

"id": "1526",

"is_active": true,

"is_point_issue": true,

"is_shipment": true,

"name": "ДА - Савинский - Цементников 9",

"address": "п. Савинский, ул. Цементников, д. 9",

"phone": "8 (818) 326-12-30",

"longitude": 40.147058,

"latitude": 62.937901,

"schedule": "Пн- Пт: 9:30 -19:00, Сб -Вс - вых",

"metro": "",

"hub": false,

"region": "SAVINSKIY",

"operating_mode": [

{

"Понедельник": "[09:30,19:00]"

},

{

"Вторник": "[09:30,19:00]"

},

{

"Среда": "[09:30,19:00]"

},

{

"Четверг": "[09:30,19:00]"

},

{

"Пятница": "[09:30,19:00]"

}

]

},

{

"id": "1585",

"is_active": true,

"is_point_issue": true,

"is_shipment": true,

"name": "ДА - Катунино - Маркина 2",

"address": "п. Катунино, ул. Маркина, д. 2",

"phone": "8 (818) 245-61-02",

"longitude": 40.627171,

"latitude": 64.391273,

"schedule": "Пн-Вс: 09:00-20:00",

"metro": "",

"hub": false,

"region": "BASE",

"operating_mode": [

{

"Понедельник": "[09:00,20:00]"

},

{

"Вторник": "[09:00,20:00]"

},

{

"Среда": "[09:00,20:00]"

},

{

"Четверг": "[09:00,20:00]"

},

{

"Пятница": "[09:00,20:00]"

},

{

"Суббота": "[09:00,20:00]"

},

{

"Воскресенье": "[09:00,20:00]"

}

]

},

{

"id": "1685",

"is_active": true,

"is_point_issue": true,

"is_shipment": true,

"name": "ДА - Архангельск - Гайдара 44",

"address": "г. Архангельск, Гайдара, д. 44, корп. 1",

"phone": "8 (818) 227-03-01",

"longitude": 40.543179,

"latitude": 64.550685,

"schedule": "Пн-Пт 09:00-21:00 Сб-Вс: 09:00-20:00",

"metro": "",

"hub": false,

"region": "BASE",

"operating_mode": [

{

"Вторник": "[09:00,21:00]"

},

{

"Понедельник": "[09:00,21:00]"

},

{

"Среда": "[09:00,21:00]"

},

{

"Четверг": "[09:00,21:00]"

},

{

"Пятница": "[09:00,21:00]"

},

{

"Суббота": "[09:00,20:00]"

},

{

"Воскресенье": "[09:00,20:00]"

}

]

},

{

"id": "1863",

"is_active": true,

"is_point_issue": true,

"is_shipment": true,

"name": "ДА - Северодвинск - Ленина 41",

"address": "г. Северодвинск, ул. Ленина, д. 41",

"phone": "8 (8184) 50-00-42",

"longitude": 39.831938,

"latitude": 64.556095,

"schedule": "Пн-Пт: 09:00-21:00 Сб-Вс: 09:00-20:00",

"metro": "",

"hub": false,

"region": "SEVSK",

"operating_mode": [

{

"Понедельник": "[09:00,21:00]"

},

{

"Вторник": "[09:00,21:00]"

},

{

"Среда": "[09:00,21:00]"

},

{

"Четверг": "[09:00,21:00]"

},

{

"Пятница": "[09:00,21:00]"

},

{

"Суббота": "[09:00,20:00]"

},

{

"Воскресенье": "[09:00,20:00]"

}

]

},

{

"id": "1865",

"is_active": true,

"is_point_issue": true,

"is_shipment": true,

"name": "Аптека МК - Пинега - Первомайская 49",

"address": "п.Пинега, ул.Первомайская, д.49",

"phone": "8 (921) 078 67-03",

"longitude": 43.393749,

"latitude": 64.698976,

"schedule": "Пн-Пт 09:00-19:00  Сб-Вс 10:00-16:00",

"metro": "",

"hub": false,

"region": "PINEGA",

"operating_mode": [

{

"Понедельник": "[09:00,18:00]"

},

{

"Вторник": "[09:00,18:00]"

},

{

"Среда": "[09:00,18:00]"

},

{

"Четверг": "[09:00,18:00]"

},

{

"Пятница": "[09:00,18:00]"

},

{

"Суббота": "[10:00,16:00]"

},

{

"Воскресенье": "[10:00,16:00]"

}

]

},

{

"id": "1866",

"is_active": true,

"is_point_issue": true,

"is_shipment": true,

"name": "ДА - Мирный - Циргвава 8",

"address": "г. Мирный, ул. Циргвава, д. 8",

"phone": "8 (981) 559-20-77",

"longitude": 40.347741,

"latitude": 62.753818,

"schedule": "Пн‑Пт: 09:00‑21:00 Сб‑Вс: 09:00‑20:00",

"metro": "",

"hub": false,

"region": "MIRNIY",

"operating_mode": [

{

"Понедельник": "[09:00,21:00]"

},

{

"Вторник": "[09:00,21:00]"

},

{

"Среда": "[09:00,21:00]"

},

{

"Четверг": "[09:00,21:00]"

},

{

"Пятница": "[09:00,21:00]"

},

{

"Суббота": "[09:00,20:00]"

},

{

"Воскресенье": "[09:00,20:00]"

}

]

},

{

"id": "1867",

"is_active": true,

"is_point_issue": true,

"is_shipment": true,

"name": "ДА - Мирный - Ломоносова 5",

"address": "г.Мирный, ул. Ломоносова, д.5",

"phone": "8 (818) 345-11-72",

"longitude": 40.339333,

"latitude": 62.755898,

"schedule": "Пн‑Пт: 09:00‑21:00 Сб‑Вс: 09:00‑20:00",

"metro": "",

"hub": false,

"region": "MIRNIY",

"operating_mode": [

{

"Понедельник": "[09:00,21:00]"

},

{

"Вторник": "[09:00,21:00]"

},

{

"Среда": "[09:00,21:00]"

},

{

"Четверг": "[09:00,21:00]"

},

{

"Пятница": "[09:00,21:00]"

},

{

"Суббота": "[09:00,20:00]"

},

{

"Воскресенье": "[09:00,20:00]"

}

]

},

{

"id": "1868",

"is_active": true,

"is_point_issue": true,

"is_shipment": true,

"name": "ДА - Плесецк - Партизанская 15 к А",

"address": "п. Плесецк, ул. Партизанская, д. 15а",

"phone": "8 (818) 327-14-74",

"longitude": 40.282604,

"latitude": 62.708996,

"schedule": "Пн-Пт 09:00-21:00 Сб-Вс 09:00-20:00",

"metro": "",

"hub": false,

"region": "PLESETSK",

"operating_mode": [

{

"Понедельник": "[09:00,21:00]"

},

{

"Вторник": "[09:00,21:00]"

},

{

"Среда": "[09:00,21:00]"

},

{

"Четверг": "[09:00,21:00]"

},

{

"Пятница": "[09:00,21:00]"

},

{

"Суббота": "[09:00,20:00]"

},

{

"Воскресенье": "[09:00,20:00]"

}

]

},

{

"id": "1869",

"is_active": true,

"is_point_issue": true,

"is_shipment": true,

"name": "ДА - Архангельск - Исакогорка - ул. Клепача, д. 1",

"address": "г. Архангельск, ул. Клепача, д. 1",

"phone": "8 (818) 262-69-08",

"longitude": 40.614801,

"latitude": 64.432144,

"schedule": "Пн-Вс 9:00-20:00",

"metro": "",

"hub": false,

"region": "BASE",

"operating_mode": [

{

"Понедельник": "[09:00,20:00]"

},

{

"Вторник": "[09:00,20:00]"

},

{

"Среда": "[09:00,20:00]"

},

{

"Четверг": "[09:00,20:00]"

},

{

"Пятница": "[09:00,20:00]"

},

{

"Суббота": "[09:00,20:00]"

},

{

"Воскресенье": "[09:00,20:00]"

}

]

},

{

"id": "1950",

"is_active": true,

"is_point_issue": true,

"is_shipment": true,

"name": "ДА - Архангельск - Воскресенская 114",

"address": "г. Архангельск, ул. Воскресенская, д. 114",

"phone": "8 (818) 269-23-21",

"longitude": 40.56295,

"latitude": 64.547682,

"schedule": "Пн-Вс 9:00-20:00",

"metro": "",

"hub": false,

"region": "BASE",

"operating_mode": [

{

"Понедельник": "[09:00,20:00]"

},

{

"Вторник": "[09:00,20:00]"

},

{

"Среда": "[09:00,20:00]"

},

{

"Четверг": "[09:00,20:00]"

},

{

"Пятница": "[09:00,20:00]"

},

{

"Суббота": "[09:00,20:00]"

},

{

"Воскресенье": "[09:00,20:00]"

}

]

},

{

"id": "2023",

"is_active": true,

"is_point_issue": true,

"is_shipment": true,

"name": "ДА - Северодвинск - Южная 16",

"address": "г. Северодвинск, ул. Южная, д. 16",

"phone": "8 (8184) 51-09-05",

"longitude": 39.85109,

"latitude": 64.557355,

"schedule": "Пн-Пт 09:00-21:00 Сб-Вс: 09:00-20:00",

"metro": "",

"hub": false,

"region": "SEVSK",

"operating_mode": [

{

"Понедельник": "[09:00,21:00]"

},

{

"Вторник": "[09:00,21:00]"

},

{

"Среда": "[09:00,21:00]"

},

{

"Четверг": "[09:00,21:00]"

},

{

"Пятница": "[09:00,21:00]"

},

{

"Суббота": "[09:00,20:00]"

},

{

"Воскресенье": "[09:00,20:00]"

}

]

},

{

"id": "2025",

"is_active": true,

"is_point_issue": true,

"is_shipment": true,

"name": "ДА - Северодвинск - Бульвар Строителей 17",

"address": "г. Северодвинск, ул. Бульвар-Строителей, д. 17",

"phone": "8 (911) 550-13-49",

"longitude": 39.755275,

"latitude": 64.54774,

"schedule": "Пн-Пт 09:00-21:00 Сб-Вс: 09:00-20:00",

"metro": "",

"hub": false,

"region": "SEVSK",

"operating_mode": [

{

"Понедельник": "[09:00,21:00]"

},

{

"Вторник": "[09:00,21:00]"

},

{

"Среда": "[09:00,21:00]"

},

{

"Четверг": "[09:00,21:00]"

},

{

"Пятница": "[09:00,21:00]"

},

{

"Суббота": "[09:00,20:00]"

},

{

"Воскресенье": "[09:00,20:00]"

}

]

},

{

"id": "2026",

"is_active": true,

"is_point_issue": true,

"is_shipment": true,

"name": "ДА - Северодвинск - Ленина 6/34",

"address": "г. Северодвинск, ул. Ленина, д. 6/34",

"phone": "8 (8184) 51-21-00",

"longitude": 39.822101,

"latitude": 64.566272,

"schedule": "Пн-Вс 9:00-21:00",

"metro": "",

"hub": false,

"region": "SEVSK",

"operating_mode": [

{

"Понедельник": "[09:00,21:00]"

},

{

"Вторник": "[09:00,21:00]"

},

{

"Среда": "[09:00,21:00]"

},

{

"Четверг": "[09:00,21:00]"

},

{

"Пятница": "[09:00,21:00]"

},

{

"Суббота": "[09:00,21:00]"

},

{

"Воскресенье": "[09:00,21:00]"

}

]

},

{

"id": "2065",

"is_active": true,

"is_point_issue": true,

"is_shipment": true,

"name": "ДА - Архангельск - Ленинградский 327",

"address": "г. Архангельск, пр. Ленинградский, д. 327",

"phone": "8 (818) 227-19-70",

"longitude": 40.689361,

"latitude": 64.50046,

"schedule": "Пн-Вс 9:00-20:00",

"metro": "",

"hub": false,

"region": "BASE",

"operating_mode": [

{

"Понедельник": "[09:00,20:00]"

},

{

"Вторник": "[09:00,20:00]"

},

{

"Среда": "[09:00,20:00]"

},

{

"Четверг": "[09:00,20:00]"

},

{

"Пятница": "[09:00,20:00]"

},

{

"Суббота": "[09:00,20:00]"

},

{

"Воскресенье": "[09:00,20:00]"

}

]

},

{

"id": "2163",

"is_active": true,

"is_point_issue": true,

"is_shipment": true,

"name": "ДА - Северодвинск - Ломоносова 81 к А",

"address": "г. Северодвинск, ул. Ломоносова, д. 81 А",

"phone": "8 (952) 307-61-68",

"longitude": 39.782171,

"latitude": 64.550495,

"schedule": "Пн-Пт 09:00-21:00 Сб-Вс 09:00-20:00",

"metro": "",

"hub": false,

"region": "SEVSK",

"operating_mode": [

{

"Понедельник": "[09:00,21:00]"

},

{

"Вторник": "[09:00,21:00]"

},

{

"Среда": "[09:00,21:00]"

},

{

"Четверг": "[09:00,21:00]"

},

{

"Пятница": "[09:00,21:00]"

},

{

"Суббота": "[09:00,20:00]"

},

{

"Воскресенье": "[09:00,20:00]"

}

]

},

{

"id": "2164",

"is_active": true,

"is_point_issue": true,

"is_shipment": true,

"name": "ДА - Северодвинск - Чехова 2",

"address": "г. Северодвинск, ул. Чехова, д. 2",

"phone": "8 (8184) 51-02-21",

"longitude": 39.814304,

"latitude": 64.554851,

"schedule": "Пн-Пт 9:00-21:00 Сб-Вс 9:00-20:00",

"metro": "",

"hub": false,

"region": "SEVSK",

"operating_mode": [

{

"Понедельник": "[09:00,21:00]"

},

{

"Вторник": "[09:00,21:00]"

},

{

"Среда": "[09:00,21:00]"

},

{

"Четверг": "[09:00,21:00]"

},

{

"Пятница": "[09:00,21:00]"

},

{

"Суббота": "[09:00,20:00]"

},

{

"Воскресенье": "[09:00,20:00]"

}

]

},

{

"id": "2165",

"is_active": true,

"is_point_issue": true,

"is_shipment": true,

"name": "ДА - Северодвинск - Беломорский 43",

"address": "г. Северодвинск, пр. Беломорский, д. 43",

"phone": "8 (952) 307-74-41",

"longitude": 39.850937,

"latitude": 64.562443,

"schedule": "Пн-Вс 9:00-20:00",

"metro": "",

"hub": false,

"region": "SEVSK",

"operating_mode": [

{

"Понедельник": "[09:00,20:00]"

},

{

"Вторник": "[09:00,20:00]"

},

{

"Среда": "[09:00,20:00]"

},

{

"Четверг": "[09:00,20:00]"

},

{

"Пятница": "[09:00,20:00]"

},

{

"Суббота": "[09:00,20:00]"

},

{

"Воскресенье": "[09:00,20:00]"

}

]

},

{

"id": "2189",

"is_active": true,

"is_point_issue": true,

"is_shipment": true,

"name": "ДА - Северодвинск - Трухинова 1 к А",

"address": "г. Северодвинск, ул. Трухинова, д. 1 А",

"phone": "8 (8184) 59-90-66",

"longitude": 39.760512,

"latitude": 64.552965,

"schedule": "Пн-Вс 9:00-20:00",

"metro": "",

"hub": false,

"region": "SEVSK",

"operating_mode": [

{

"Понедельник": "[09:00,20:00]"

},

{

"Вторник": "[09:00,20:00]"

},

{

"Среда": "[09:00,20:00]"

},

{

"Четверг": "[09:00,20:00]"

},

{

"Пятница": "[09:00,20:00]"

},

{

"Суббота": "[09:00,20:00]"

},

{

"Воскресенье": "[09:00,20:00]"

}

]

},

{

"id": "2263",

"is_active": true,

"is_point_issue": true,

"is_shipment": true,

"name": "ДА - Северодвинск - Логинова 2",

"address": "г. Северодвинск, ул. Логинова, д. 2",

"phone": "8 (8184) 51-07-00",

"longitude": 39.819154,

"latitude": 64.595937,

"schedule": "Пн-Вс 09:00-20:00",

"metro": "",

"hub": false,

"region": "SEVSK",

"operating_mode": [

{

"Понедельник": "[09:00,20:00]"

},

{

"Вторник": "[09:00,20:00]"

},

{

"Среда": "[09:00,20:00]"

},

{

"Четверг": "[09:00,20:00]"

},

{

"Пятница": "[09:00,20:00]"

},

{

"Суббота": "[09:00,20:00]"

},

{

"Воскресенье": "[09:00,20:00]"

}

]

},

{

"id": "2265",

"is_active": true,

"is_point_issue": true,

"is_shipment": true,

"name": "ДА - Архангельск - Московский 43",

"address": "г. Архангельск, пр. Московский, д. 43",

"phone": "8 (818) 269-94-09",

"longitude": 40.611936,

"latitude": 64.532444,

"schedule": "Пн-Вс 9:00-21:00",

"metro": "",

"hub": false,

"region": "BASE",

"operating_mode": [

{

"Понедельник": "[09:00,21:00]"

},

{

"Вторник": "[09:00,21:00]"

},

{

"Среда": "[09:00,21:00]"

},

{

"Четверг": "[09:00,21:00]"

},

{

"Пятница": "[09:00,21:00]"

},

{

"Суббота": "[09:00,21:00]"

},

{

"Воскресенье": "[09:00,21:00]"

}

]

},

{

"id": "2266",

"is_active": true,

"is_point_issue": true,

"is_shipment": true,

"name": "ДА - Архангельск - Комсомольская 47",

"address": "г. Архангельск, ул. Комсомольская, д. 47",

"phone": "8 (818) 269-99-97",

"longitude": 40.540178,

"latitude": 64.558939,

"schedule": "Пн-Пт 9:00-21:00 Сб-Вс 9:00-20:00",

"metro": "",

"hub": false,

"region": "BASE",

"operating_mode": [

{

"Понедельник": "[09:00,21:00]"

},

{

"Вторник": "[09:00,21:00]"

},

{

"Среда": "[09:00,21:00]"

},

{

"Четверг": "[09:00,21:00]"

},

{

"Пятница": "[09:00,21:00]"

},

{

"Суббота": "[09:00,20:00]"

},

{

"Воскресенье": "[09:00,20:00]"

}

]

},

{

"id": "2269",

"is_active": true,

"is_point_issue": true,

"is_shipment": true,

"name": "ДА - Архангельск - Розы Люксембург 3",

"address": "г. Архангельск, ул. Розы Люксембург, д. 3",

"phone": "8 (818) 229-60-04",

"longitude": 40.542496,

"latitude": 64.530112,

"schedule": "Пн-Вс 9:00-20:30",

"metro": "",

"hub": false,

"region": "BASE",

"operating_mode": [

{

"Понедельник": "[09:00,20:30]"

},

{

"Вторник": "[09:00,20:30]"

},

{

"Среда": "[09:00,20:30]"

},

{

"Четверг": "[09:00,20:30]"

},

{

"Пятница": "[09:00,20:30]"

},

{

"Суббота": "[09:00,20:30]"

},

{

"Воскресенье": "[09:00,20:30]"

}

]

},

{

"id": "2343",

"is_active": true,

"is_point_issue": true,

"is_shipment": true,

"name": "ДА - НАО - Пырерко 13 к А",

"address": "г. Нарьян-Мар, ул. им. И. А. Пырерко, д. 13 А",

"phone": "8 (960) 009-80-88",

"longitude": 53.006198,

"latitude": 67.643195,

"schedule": "Пн-Пт 08:00-21:00 Сб-Вс: 09:00-20:00",

"metro": "",

"hub": false,

"region": "NARYANMAR",

"operating_mode": [

{

"Понедельник": "[08:00,21:00]"

},

{

"Вторник": "[08:00,21:00]"

},

{

"Среда": "[08:00,21:00]"

},

{

"Четверг": "[08:00,21:00]"

},

{

"Пятница": "[08:00,21:00]"

},

{

"Суббота": "[09:00,20:00]"

},

{

"Воскресенье": "[09:00,20:00]"

}

]

},

{

"id": "2346",

"is_active": true,

"is_point_issue": true,

"is_shipment": true,

"name": "ДА - НАО - Геологов 13",

"address": "г. Нарьян-Мар, рп Искателей,  ул. Геологов, д. 13",

"phone": "8 (960) 009-92-99",

"longitude": 53.118174,

"latitude": 67.67681,

"schedule": "Пн-Пт 09:00-20:00 Сб-Вс: 09:00-19:00",

"metro": "",

"hub": false,

"region": "NARYANMAR",

"operating_mode": [

{

"Понедельник": "[09:00,20:00]"

},

{

"Вторник": "[09:00,20:00]"

},

{

"Среда": "[09:00,20:00]"

},

{

"Четверг": "[09:00,20:00]"

},

{

"Пятница": "[09:00,20:00]"

},

{

"Суббота": "[09:00,19:00]"

},

{

"Воскресенье": "[09:00,19:00]"

}

]

},

{

"id": "2384",

"is_active": true,

"is_point_issue": true,

"is_shipment": true,

"name": "ДА - СПб - Тельмана 56/41",

"address": "г. Санкт-Петербург, ул. Тельмана, д. 56/41",

"phone": "8 (904) 635-51-35",

"longitude": 30.489117,

"latitude": 59.893051,

"schedule": "Пн-Вс 09:00-21:00",

"metro": "",

"hub": false,

"region": "STPETERSBURG",

"operating_mode": [

{

"Понедельник": "[09:00,21:00]"

},

{

"Вторник": "[09:00,21:00]"

},

{

"Среда": "[09:00,21:00]"

},

{

"Четверг": "[09:00,21:00]"

},

{

"Пятница": "[09:00,21:00]"

},

{

"Суббота": "[09:00,21:00]"

},

{

"Воскресенье": "[09:00,21:00]"

}

]

},

{

"id": "2443",

"is_active": true,

"is_point_issue": true,

"is_shipment": true,

"name": "ДА - СПб - Всеволжск - Дорога жизни 11",

"address": "г. Всеволожск, ул. Дорога жизни, д. 11",

"phone": "8 (904) 635-66-38",

"longitude": 30.629165,

"latitude": 60.032955,

"schedule": "Пн-Вс 09:00-21:00",

"metro": "",

"hub": false,

"region": "STPETERSBURG",

"operating_mode": [

{

"Понедельник": "[09:00,21:00]"

},

{

"Вторник": "[09:00,21:00]"

},

{

"Среда": "[09:00,21:00]"

},

{

"Четверг": "[09:00,21:00]"

},

{

"Пятница": "[09:00,21:00]"

},

{

"Суббота": "[09:00,21:00]"

},

{

"Воскресенье": "[09:00,21:00]"

}

]

},

{

"id": "2463",

"is_active": true,

"is_point_issue": true,

"is_shipment": true,

"name": "ДА - Вельск - Некрасова 13 к 1/2",

"address": "г.Вельск, ул. Некрасова, д. 13, стр 1/3",

"phone": "8 (818) 366-03-39",

"longitude": 42.092207,

"latitude": 61.077579,

"schedule": "Пн-Вс 09:00-19:00",

"metro": "",

"hub": false,

"region": "VELSK",

"operating_mode": [

{

"Понедельник": "[09:00,19:00]"

},

{

"Вторник": "[09:00,19:00]"

},

{

"Среда": "[09:00,19:00]"

},

{

"Четверг": "[09:00,19:00]"

},

{

"Пятница": "[09:00,19:00]"

},

{

"Суббота": "[09:00,19:00]"

},

{

"Воскресенье": "[09:00,19:00]"

}

]

},

{

"id": "2465",

"is_active": true,

"is_point_issue": true,

"is_shipment": true,

"name": "ДА - Вельск - Дзержинского 62 к Д",

"address": "г.Вельск, ул. Дзержинского, д. 62Д",

"phone": "8 (818) 366-00-69",

"longitude": 42.113845,

"latitude": 61.072279,

"schedule": "Пн-Вс 09:00-19:00",

"metro": "",

"hub": false,

"region": "VELSK",

"operating_mode": [

{

"Понедельник": "[09:00,19:00]"

},

{

"Вторник": "[09:00,19:00]"

},

{

"Среда": "[09:00,19:00]"

},

{

"Четверг": "[09:00,19:00]"

},

{

"Пятница": "[09:00,19:00]"

},

{

"Суббота": "[09:00,19:00]"

},

{

"Воскресенье": "[09:00,19:00]"

}

]

},

{

"id": "2524",

"is_active": true,

"is_point_issue": true,

"is_shipment": true,

"name": "ДА - Архангельск - Шабалина 20 к 1",

"address": "г. Архангельск, ул. Шабалина, д. 20, корп. 1",

"phone": "8 (818) 242-35-41",

"longitude": 40.55916,

"latitude": 64.542587,

"schedule": "Пн-Вс 9:00-20:00",

"metro": "",

"hub": false,

"region": "BASE",

"operating_mode": [

{

"Понедельник": "[09:00,20:00]"

},

{

"Вторник": "[09:00,20:00]"

},

{

"Среда": "[09:00,20:00]"

},

{

"Четверг": "[09:00,20:00]"

},

{

"Пятница": "[09:00,20:00]"

},

{

"Суббота": "[09:00,20:00]"

},

{

"Воскресенье": "[09:00,20:00]"

}

]

},

{

"id": "2563",

"is_active": true,

"is_point_issue": true,

"is_shipment": true,

"name": "ДА - Мирный - Степанченко 5/1",

"address": "г. Мирный, ул. Степанченко, д. 5/1 пом. 7",

"phone": "8 (952) 303-13-43",

"longitude": 40.326622,

"latitude": 62.768838,

"schedule": "Пн‑Пт: 09:00‑21:00 Сб‑Вс: 09:00‑20:00",

"metro": "",

"hub": false,

"region": "MIRNIY",

"operating_mode": [

{

"Понедельник": "[09:00,21:00]"

},

{

"Вторник": "[09:00,21:00]"

},

{

"Среда": "[09:00,21:00]"

},

{

"Четверг": "[09:00,21:00]"

},

{

"Пятница": "[09:00,21:00]"

},

{

"Суббота": "[09:00,20:00]"

},

{

"Воскресенье": "[09:00,20:00]"

}

]

},

{

"id": "2683",

"is_active": true,

"is_point_issue": true,

"is_shipment": true,

"name": "ДА - Архангельск - Гайдара 10",

"address": "г. Архангельск, ул. Гайдара, д.10, пом 4-Н",

"phone": "8 (818) 269-96-77",

"longitude": 40.522598,

"latitude": 64.552872,

"schedule": "Пн-Пт 09:00-21:00 Сб-Вс: 09:00-20:00",

"metro": "",

"hub": false,

"region": "BASE",

"operating_mode": [

{

"Понедельник": "[09:00,21:00]"

},

{

"Вторник": "[09:00,21:00]"

},

{

"Среда": "[09:00,21:00]"

},

{

"Четверг": "[09:00,21:00]"

},

{

"Пятница": "[09:00,21:00]"

},

{

"Суббота": "[09:00,20:00]"

},

{

"Воскресенье": "[09:00,20:00]"

}

]

},

{

"id": "2685",

"is_active": true,

"is_point_issue": true,

"is_shipment": true,

"name": "ДА - Каргополь - Ленина 50",

"address": "г. Каргополь, ул. Ленина, д. 50",

"phone": "8 (991) 468-20-89",

"longitude": 38.945363,

"latitude": 61.504095,

"schedule": "Пн-Пт 09:00-18:00  Сб-Вс 10:00-16:00",

"metro": "",

"hub": false,

"region": "KARGOPOL",

"operating_mode": [

{

"Понедельник": "[09:00,18:00]"

},

{

"Вторник": "[09:00,18:00]"

},

{

"Среда": "[09:00,18:00]"

},

{

"Четверг": "[09:00,18:00]"

},

{

"Пятница": "[09:00,18:00]"

},

{

"Суббота": "[10:00,16:00]"

},

{

"Воскресенье": "[10:00,16:00]"

}

]

},

{

"id": "2686",

"is_active": true,

"is_point_issue": true,

"is_shipment": true,

"name": "ДА - Архангельск - Троицкий 81",

"address": "г. Архангельск, пр. Троицкий, д. 81",

"phone": "8 (818) 221-41-77",

"longitude": 40.51808,

"latitude": 64.548258,

"schedule": "Пн-Пт 09:00-21:00 Сб-Вс: 09:00-20:00",

"metro": "",

"hub": false,

"region": "BASE",

"operating_mode": [

{

"Понедельник": "[09:00,21:00]"

},

{

"Вторник": "[09:00,21:00]"

},

{

"Среда": "[09:00,21:00]"

},

{

"Четверг": "[09:00,21:00]"

},

{

"Пятница": "[09:00,21:00]"

},

{

"Суббота": "[09:00,20:00]"

},

{

"Воскресенье": "[09:00,20:00]"

}

]

},

{

"id": "2723",

"is_active": true,

"is_point_issue": true,

"is_shipment": true,

"name": "ДА - СПб - Пятилеток 8 к 1",

"address": "г. Санкт-Петербург, ул. Пятилеток, д. 8, к. 1",

"phone": "8 (950) 014-82-11",

"longitude": 30.459392,

"latitude": 59.921809,

"schedule": "Пн-Вс 09:00-21:00",

"metro": "",

"hub": false,

"region": "STPETERSBURG",

"operating_mode": [

{

"Понедельник": "[09:00,21:00]"

},

{

"Вторник": "[09:00,21:00]"

},

{

"Среда": "[09:00,21:00]"

},

{

"Четверг": "[09:00,21:00]"

},

{

"Пятница": "[09:00,21:00]"

},

{

"Суббота": "[09:00,21:00]"

},

{

"Воскресенье": "[09:00,21:00]"

}

]

},

{

"id": "2783",

"is_active": true,

"is_point_issue": true,

"is_shipment": true,

"name": "ДА - Северодвинск - Морской 37",

"address": "г. Северодвинск, пр. Морской, д. 37, пом 1-Н ",

"phone": "8 (8184) 51-04-40",

"longitude": 39.779521,

"latitude": 64.545668,

"schedule": "Пн-Пт 09:00-21:00 Сб-Вс: 09:00-20:00",

"metro": "",

"hub": false,

"region": "SEVSK",

"operating_mode": [

{

"Понедельник": "[09:00,21:00]"

},

{

"Вторник": "[09:00,21:00]"

},

{

"Среда": "[09:00,21:00]"

},

{

"Четверг": "[09:00,21:00]"

},

{

"Пятница": "[09:00,21:00]"

},

{

"Суббота": "[09:00,20:00]"

},

{

"Воскресенье": "[09:00,20:00]"

}

]

},

{

"id": "2903",

"is_active": true,

"is_point_issue": true,

"is_shipment": true,

"name": "ДА - НАО - Ленина 21 к А",

"address": "г. Нарьян-Мар, ул. им В.И. Ленина, д. 21 А",

"phone": "8 (960) 002-27-37",

"longitude": 53.000737,

"latitude": 67.63714,

"schedule": "Пн-Вс 09:00-20:00",

"metro": "",

"hub": false,

"region": "NARYANMAR",

"operating_mode": [

{

"Понедельник": "[09:00,20:00]"

},

{

"Вторник": "[09:00,20:00]"

},

{

"Среда": "[09:00,20:00]"

},

{

"Четверг": "[09:00,20:00]"

},

{

"Пятница": "[09:00,20:00]"

},

{

"Суббота": "[09:00,20:00]"

},

{

"Воскресенье": "[09:00,20:00]"

}

]

},

{

"id": "2983",

"is_active": true,

"is_point_issue": true,

"is_shipment": true,

"name": "ДА - Архангельск - Воскресенская 95",

"address": "г. Архангельск, ул. Воскресенская д. 95",

"phone": "8 (818) 269-80-56",

"longitude": 40.553815,

"latitude": 64.547009,

"schedule": "Пн-Вс 9:00-20:00",

"metro": "",

"hub": false,

"region": "BASE",

"operating_mode": [

{

"Понедельник": "[09:00,20:00]"

},

{

"Вторник": "[09:00,20:00]"

},

{

"Среда": "[09:00,20:00]"

},

{

"Четверг": "[09:00,20:00]"

},

{

"Пятница": "[09:00,20:00]"

},

{

"Суббота": "[09:00,20:00]"

},

{

"Воскресенье": "[09:00,20:00]"

}

]

},

{

"id": "30102",

"is_active": true,

"is_point_issue": true,

"is_shipment": true,

"name": "ДА - Архангельск - Октябрьская 20 к 1",

"address": "Архангельск - ул. Октябрьская, д. 20 к 1",

"phone": "8 (952) 251-65-37",

"longitude": 40.705468,

"latitude": 64.493396,

"schedule": "Пн-Вс 10:00-21:00",

"metro": "",

"hub": false,

"region": "BASE",

"operating_mode": [

{

"Понедельник": "[10:00,21:00]"

},

{

"Вторник": "[10:00,21:00]"

},

{

"Среда": "[10:00,21:00]"

},

{

"Четверг": "[10:00,21:00]"

},

{

"Пятница": "[10:00,21:00]"

},

{

"Суббота": "[10:00,21:00]"

},

{

"Воскресенье": "[10:00,21:00]"

}

]

},

{

"id": "30103",

"is_active": true,

"is_point_issue": true,

"is_shipment": true,

"name": "ДА - Холмогоры - Ломоносова 13",

"address": "с. Холмогоры, ул. Ломоносова, д.13",

"phone": "8 (818) 303-38-78",

"longitude": 41.655491,

"latitude": 64.223962,

"schedule": "Пн-Пт 9:00-18:00  Сб 10:00-16:00  Вс - выходной",

"metro": "",

"hub": false,

"region": "KHOLMOGORY",

"operating_mode": [

{

"Понедельник": "[09:00,18:00]"

},

{

"Вторник": "[09:00,18:00]"

},

{

"Среда": "[09:00,18:00]"

},

{

"Четверг": "[09:00,18:00]"

},

{

"Пятница": "[09:00,18:00]"

},

{

"Суббота": "[10:00,16:00]"

}

]

},

{

"id": "30106",

"is_active": true,

"is_point_issue": true,

"is_shipment": true,

"name": "ДА - Лешуконское - Октябрьская д 20",

"address": "с. Лешуконское, ул. Октябрьская, д. 20",

"phone": "8 (991) 054-17-16",

"longitude": 45.76478,

"latitude": 64.898708,

"schedule": "Пн-Пт 9:00-18:00  Сб 10:00-15:00  Вс - выходной",

"metro": "",

"hub": false,

"region": "LESHUKONSKOE",

"operating_mode": [

{

"Понедельник": "[09:00,18:00]"

},

{

"Вторник": "[09:00,18:00]"

},

{

"Среда": "[09:00,18:00]"

},

{

"Четверг": "[09:00,18:00]"

},

{

"Пятница": "[09:00,18:00]"

},

{

"Суббота": "[10:00,15:00]"

}

]

},

{

"id": "30107",

"is_active": true,

"is_point_issue": true,

"is_shipment": true,

"name": "ДА - Онега - Загородный д 79 к 3",

"address": "Онежский р-н, г. Онега, пр. Загородный, д. 79 к. 3",

"phone": "8 (991) 054-17-32",

"longitude": 38.096042,

"latitude": 63.923379,

"schedule": "Пн-Пт 09:00-18:00  Сб-Вс - выходной",

"metro": "",

"hub": false,

"region": "ONEGA",

"operating_mode": [

{

"Понедельник": "[09:00,18:00]"

},

{

"Вторник": "[09:00,18:00]"

},

{

"Среда": "[09:00,18:00]"

},

{

"Четверг": "[09:00,18:00]"

},

{

"Пятница": "[09:00,18:00]"

},

{

"Суббота": "[,]"

},

{

"Воскресенье": "[,]"

}

]

},

{

"id": "30108",

"is_active": true,

"is_point_issue": true,

"is_shipment": true,

"name": "ДА - Архангельск - Никитова д 11",

"address": "г. Архангельск, ул. Никитова, д.11",

"phone": "8 (8182) 69-27-85",

"longitude": 40.671988,

"latitude": 64.511733,

"schedule": "Пн-Пт 9:00-21.00 Сб-Вс 9:00-20:00",

"metro": "",

"hub": false,

"region": "BASE",

"operating_mode": [

{

"Понедельник": "[09:00,21:00]"

},

{

"Вторник": "[09:00,21:00]"

},

{

"Среда": "[09:00,21:00]"

},

{

"Четверг": "[09:00,21:00]"

},

{

"Пятница": "[09:00,21:00]"

},

{

"Суббота": "[09:00,20:00]"

},

{

"Воскресенье": "[09:00,20:00]"

}

]

},

{

"id": "30110",

"is_active": true,

"is_point_issue": true,

"is_shipment": true,

"name": "ДА - НАО - Угольная 8",

"address": "г. Нарьян-Мар, рп Искателей,  ул. Угольная, д. 8",

"phone": "8 (991) 053-15-18",

"longitude": 53.118856,

"latitude": 67.673113,

"schedule": "Пн-Пт 09:00-20:00 Сб-Вс: 09:00-19:00",

"metro": "",

"hub": false,

"region": "NARYANMAR",

"operating_mode": [

{

"Понедельник": "[09:00,20:00]"

},

{

"Вторник": "[09:00,20:00]"

},

{

"Среда": "[09:00,20:00]"

},

{

"Четверг": "[09:00,20:00]"

},

{

"Пятница": "[09:00,20:00]"

},

{

"Суббота": "[09:00,19:00]"

},

{

"Воскресенье": "[09:00,19:00]"

}

]

},

{

"id": "30111",

"is_active": true,

"is_point_issue": true,

"is_shipment": true,

"name": "ДА - Архангельск - Воскресенская 116",

"address": "г. Архангельск, ул. Воскресенская, д.116",

"phone": "8 (8182) 69-88-84",

"longitude": 40.566544,

"latitude": 64.548745,

"schedule": "Пн-Вс 9:00-21:00",

"metro": "",

"hub": false,

"region": "BASE",

"operating_mode": [

{

"Понедельник": "[09:00,21:00]"

},

{

"Вторник": "[09:00,21:00]"

},

{

"Среда": "[09:00,21:00]"

},

{

"Четверг": "[09:00,21:00]"

},

{

"Пятница": "[09:00,21:00]"

},

{

"Суббота": "[09:00,20:00]"

},

{

"Воскресенье": "[09:00,20:00]"

}

]

},

{

"id": "30112",

"is_active": true,

"is_point_issue": true,

"is_shipment": true,

"name": "ДА - Архангельск - Тимме 1 к. 3",

"address": "г. Архангельск, ул. Тимме, д. 1 к 3",

"phone": "8 (991) 471-69-28",

"longitude": 40.568331,

"latitude": 64.541829,

"schedule": "Пн-Пт 09:00-21:00 Сб-Вс: 09:00-20:00",

"metro": "",

"hub": false,

"region": "BASE",

"operating_mode": [

{

"Понедельник": "[09:00,21:00]"

},

{

"Вторник": "[09:00,21:00]"

},

{

"Среда": "[09:00,21:00]"

},

{

"Четверг": "[09:00,21:00]"

},

{

"Пятница": "[09:00,21:00]"

},

{

"Суббота": "[09:00,21:00]"

},

{

"Воскресенье": "[09:00,21:00]"

}

]

},

{

"id": "30113",

"is_active": true,

"is_point_issue": true,

"is_shipment": true,

"name": "ДА - Архангельск - Никольский 92",

"address": "г. Архангельск, пр.Никольский, д. 92",

"phone": "8 (953) 269-93-74",

"longitude": 40.505189,

"latitude": 64.581556,

"schedule": "Пн-Вс 9:00-20:00",

"metro": "",

"hub": false,

"region": "BASE",

"operating_mode": [

{

"Понедельник": "[09:00,20:00]"

},

{

"Вторник": "[09:00,20:00]"

},

{

"Среда": "[09:00,20:00]"

},

{

"Четверг": "[09:00,20:00]"

},

{

"Пятница": "[09:00,20:00]"

},

{

"Суббота": "[09:00,20:00]"

},

{

"Воскресенье": "[09:00,20:00]"

}

]

},

{

"id": "30114",

"is_active": true,

"is_point_issue": true,

"is_shipment": true,

"name": "ДА - Котлас - Мира 9 А",

"address": "Архангельская обл., г. Котлас, ул.Мира, д.9 А",

"phone": "8 (818) 379-07-99",

"longitude": 46.635679,

"latitude": 61.232353,

"schedule": "Пн-Вс: 09:00-20:00",

"metro": "",

"hub": false,

"region": "KOTLAS",

"operating_mode": [

{

"Понедельник": "[09:00,20:00]"

},

{

"Вторник": "[09:00,20:00]"

},

{

"Среда": "[09:00,20:00]"

},

{

"Четверг": "[09:00,20:00]"

},

{

"Пятница": "[09:00,20:00]"

},

{

"Суббота": "[09:00,20:00]"

},

{

"Воскресенье": "[09:00,20:00]"

}

]

},

{

"id": "30116",

"is_active": true,

"is_point_issue": true,

"is_shipment": true,

"name": "ДА - Коряжма - Сафьяна д 9",

"address": "Котлаский р-н, г. Коряжма, ул. Сафьяна, д. 9",

"phone": "",

"longitude": 47.149344,

"latitude": 61.317611,

"schedule": "Пн-Вс: 09:00-20:00",

"metro": "",

"hub": false,

"region": "KORYAZHMA",

"operating_mode": [

{

"Понедельник": "[09:00,18:00]"

},

{

"Вторник": "[09:00,18:00]"

},

{

"Среда": "[09:00,18:00]"

},

{

"Четверг": "[09:00,18:00]"

},

{

"Пятница": "[09:00,18:00]"

},

{

"Суббота": "[,]"

},

{

"Воскресенье": "[,]"

}

]

},

{

"id": "303",

"is_active": true,

"is_point_issue": true,

"is_shipment": true,

"name": "ДА - Архангельск - Галушина 21 к 1",

"address": "г. Архангельск, ул. П. Галушина, д. 21/1",

"phone": "8 (818) 266-21-26",

"longitude": 40.620883,

"latitude": 64.533496,

"schedule": "Пн-Пт 09:00-20:00 Сб-Вс: 10:00-20:00",

"metro": "",

"hub": false,

"region": "BASE",

"operating_mode": [

{

"Понедельник": "[09:00,20:00]"

},

{

"Вторник": "[09:00,20:00]"

},

{

"Среда": "[09:00,20:00]"

},

{

"Четверг": "[09:00,20:00]"

},

{

"Пятница": "[09:00,20:00]"

},

{

"Суббота": "[10:00,20:00]"

},

{

"Воскресенье": "[10:00,20:00]"

}

]

},

{

"id": "305",

"is_active": true,

"is_point_issue": true,

"is_shipment": true,

"name": "Аптека МК - Архангельск - ГП №1 - Троицкий 99",

"address": "г. Архангельск, пр. Троицкий, д. 99",

"phone": "8 (818) 221-56-94",

"longitude": 40.520388,

"latitude": 64.552702,

"schedule": "Пн-Пт 8:00-18:00",

"metro": "",

"hub": false,

"region": "BASE",

"operating_mode": [

{

"Понедельник": "[08:00,18:00]"

},

{

"Вторник": "[08:00,18:00]"

},

{

"Среда": "[08:00,18:00]"

},

{

"Четверг": "[08:00,18:00]"

},

{

"Пятница": "[08:00,18:00]"

}

]

},

{

"id": "3082",

"is_active": true,

"is_point_issue": true,

"is_shipment": true,

"name": "ДА - СПб - пр. Ветеранов 87",

"address": "г Санкт-Петербург, пр. Ветеранов, д. 87, лит А",

"phone": "8 (952) 281-56-76",

"longitude": 30.220988,

"latitude": 59.834926,

"schedule": "Пн-Вс 09:00-21:00",

"metro": "",

"hub": false,

"region": "STPETERSBURG",

"operating_mode": [

{

"Понедельник": "[09:00,21:00]"

},

{

"Вторник": "[09:00,21:00]"

},

{

"Среда": "[09:00,21:00]"

},

{

"Четверг": "[09:00,21:00]"

},

{

"Пятница": "[09:00,21:00]"

},

{

"Суббота": "[09:00,21:00]"

},

{

"Воскресенье": "[09:00,21:00]"

}

]

},

{

"id": "3084",

"is_active": true,

"is_point_issue": true,

"is_shipment": true,

"name": "ДА - Архангельск - Малоникольская 32",

"address": "г. Архангельск, ул. Малоникольская, д. 32",

"phone": "8 (818) 224-92-77",

"longitude": 40.508773,

"latitude": 64.576522,

"schedule": "Пн-Вс: 9:00-21:00",

"metro": "",

"hub": false,

"region": "BASE",

"operating_mode": [

{

"Понедельник": "[09:00,21:00]"

},

{

"Вторник": "[09:00,21:00]"

},

{

"Среда": "[09:00,21:00]"

},

{

"Четверг": "[09:00,21:00]"

},

{

"Пятница": "[09:00,21:00]"

},

{

"Суббота": "[09:00,21:00]"

},

{

"Воскресенье": "[09:00,21:00]"

}

]

},

{

"id": "3087",

"is_active": true,

"is_point_issue": true,

"is_shipment": true,

"name": "ДА - Коноша - Октябрьский 25",

"address": "г. Коноша, пр. Октябрьский, д. 25",

"phone": "8 (902) 706-53-99",

"longitude": 40.261647,

"latitude": 60.972363,

"schedule": "Пн-Вс 09:00-20:00",

"metro": "",

"hub": false,

"region": "KONOSHA",

"operating_mode": [

{

"Понедельник": "[09:00,20:00]"

},

{

"Вторник": "[09:00,20:00]"

},

{

"Среда": "[09:00,20:00]"

},

{

"Четверг": "[09:00,20:00]"

},

{

"Пятница": "[09:00,20:00]"

},

{

"Суббота": "[09:00,20:00]"

},

{

"Воскресенье": "[09:00,20:00]"

}

]

},

{

"id": "309",

"is_active": true,

"is_point_issue": true,

"is_shipment": true,

"name": "Аптека МК - Каргополь - Советская 48",

"address": "г. Каргополь, ул.Советская, д.48",

"phone": "8 (818) 412-12-81",

"longitude": 38.945992,

"latitude": 61.507709,

"schedule": "Пн-Пт 8:00-19:00  Сб-Вс 09:00-17:00",

"metro": "",

"hub": false,

"region": "KARGOPOL",

"operating_mode": [

{

"Понедельник": "[08:00,19:00]"

},

{

"Вторник": "[08:00,19:00]"

},

{

"Среда": "[08:00,19:00]"

},

{

"Четверг": "[08:00,19:00]"

},

{

"Пятница": "[08:00,19:00]"

},

{

"Суббота": "[09:00,17:00]"

},

{

"Воскресенье": "[09:00,17:00]"

}

]

},

{

"id": "3094",

"is_active": true,

"is_point_issue": true,

"is_shipment": true,

"name": "ДА - Архангельск - Никольский 17",

"address": "г. Архангельск, пр. Никольский, д. 17",

"phone": "8 (939) 799-97-95",

"longitude": 40.511387,

"latitude": 64.572077,

"schedule": "Пн-Вс 9:00-20:00",

"metro": "",

"hub": false,

"region": "BASE",

"operating_mode": [

{

"Понедельник": "[09:00,20:00]"

},

{

"Вторник": "[09:00,20:00]"

},

{

"Среда": "[09:00,20:00]"

},

{

"Четверг": "[09:00,20:00]"

},

{

"Пятница": "[09:00,20:00]"

},

{

"Суббота": "[09:00,20:00]"

},

{

"Воскресенье": "[09:00,20:00]"

}

]

},

{

"id": "3095",

"is_active": true,

"is_point_issue": true,

"is_shipment": true,

"name": "ДА - НАО - Швецова 2 ",

"address": "г. Нарьян-Мар, ул. им И. К. Швецова, д. 2",

"phone": "8 (962) 664-96-04",

"longitude": 53.018083,

"latitude": 67.632062,

"schedule": "Пн-Вс 09:00-20:00 ",

"metro": "",

"hub": false,

"region": "NARYANMAR",

"operating_mode": [

{

"Понедельник": "[09:00,20:00]"

},

{

"Вторник": "[09:00,20:00]"

},

{

"Среда": "[09:00,20:00]"

},

{

"Четверг": "[09:00,20:00]"

},

{

"Пятница": "[09:00,20:00]"

},

{

"Суббота": "[09:00,20:00]"

},

{

"Воскресенье": "[09:00,20:00]"

}

]

},

{

"id": "3097",

"is_active": true,

"is_point_issue": true,

"is_shipment": true,

"name": "ДА - Архангельск - Троицкий 166",

"address": "г. Архангельск, пр. Троицкий, д.166",

"phone": "8 (818) 229-47-17 ",

"longitude": 40.525015,

"latitude": 64.558978,

"schedule": "Пн-Пт 09:00-21:00 Сб-Вс: 09:00-20:00",

"metro": "",

"hub": false,

"region": "BASE",

"operating_mode": [

{

"Понедельник": "[09:00,21:00]"

},

{

"Вторник": "[09:00,21:00]"

},

{

"Среда": "[09:00,21:00]"

},

{

"Четверг": "[09:00,21:00]"

},

{

"Пятница": "[09:00,21:00]"

},

{

"Суббота": "[09:00,21:00]"

},

{

"Воскресенье": "[09:00,21:00]"

}

]

},

{

"id": "3098",

"is_active": true,

"is_point_issue": true,

"is_shipment": true,

"name": "ДА - Урдома - Железнодорожная д 10",

"address": "п. Урдома, ул. Железнодорожная, д. 10",

"phone": "8 (952) 251-66-39",

"longitude": 48.529992,

"latitude": 61.759456,

"schedule": "Пн-Пт: 9:00-20:00 Сб-Вс: 09:00-18:00",

"metro": "",

"hub": false,

"region": "URDOMA",

"operating_mode": [

{

"Понедельник": "[09:00,20:00]"

},

{

"Вторник": "[09:00,20:00]"

},

{

"Среда": "[09:00,20:00]"

},

{

"Четверг": "[09:00,20:00]"

},

{

"Пятница": "[09:00,20:00]"

},

{

"Суббота": "[09:00,18:00]"

},

{

"Воскресенье": "[09:00,18:00]"

}

]

},

{

"id": "3099",

"is_active": true,

"is_point_issue": true,

"is_shipment": true,

"name": "ДА - Северодвинск - Мира д 13",

"address": "г. Северодвинск, ул. Мира, д. 13",

"phone": "8 (8184) 51-04-82",

"longitude": 39.809255,

"latitude": 64.59481,

"schedule": "Пн-Вс 09:00-20:00",

"metro": "",

"hub": false,

"region": "SEVSK",

"operating_mode": [

{

"Понедельник": "[09:00,20:00]"

},

{

"Вторник": "[09:00,20:00]"

},

{

"Среда": "[09:00,20:00]"

},

{

"Четверг": "[09:00,20:00]"

},

{

"Пятница": "[09:00,20:00]"

},

{

"Суббота": "[09:00,20:00]"

},

{

"Воскресенье": "[09:00,20:00]"

}

]

},

{

"id": "311",

"is_active": true,

"is_point_issue": true,

"is_shipment": true,

"name": "ДА - Няндома - Ленина 45",

"address": "г. Няндома,ул. Ленина, д. 45",

"phone": "8 (8182) 43-03-47",

"longitude": 40.202789,

"latitude": 61.654965,

"schedule": "Пн-Пт 8:00-20:00  Сб-Вс 09:00-19:00",

"metro": "",

"hub": false,

"region": "NYANDOMA",

"operating_mode": [

{

"Понедельник": "[08:00,20:00]"

},

{

"Вторник": "[08:00,20:00]"

},

{

"Среда": "[08:00,20:00]"

},

{

"Четверг": "[08:00,20:00]"

},

{

"Пятница": "[08:00,20:00]"

},

{

"Суббота": "[09:00,19:00]"

},

{

"Воскресенье": "[09:00,19:00]"

}

]

},

{

"id": "312",

"is_active": true,

"is_point_issue": true,

"is_shipment": true,

"name": "ДА - Онега - Ленина 82",

"address": "Онежский р-н, г. Онега, пр. Ленина, д.82",

"phone": "8 (818) 397-21-29",

"longitude": 38.116908,

"latitude": 63.903461,

"schedule": "Пн-Пт 8:00-19:00  Сб-Вс 09:00-17:00",

"metro": "",

"hub": false,

"region": "ONEGA",

"operating_mode": [

{

"Понедельник": "[08:00,19:00]"

},

{

"Вторник": "[08:00,19:00]"

},

{

"Среда": "[08:00,19:00]"

},

{

"Четверг": "[08:00,19:00]"

},

{

"Пятница": "[08:00,19:00]"

},

{

"Суббота": "[09:00,17:00]"

},

{

"Воскресенье": "[09:00,17:00]"

}

]

},

{

"id": "314",

"is_active": true,

"is_point_issue": true,

"is_shipment": true,

"name": "Аптека МК - Архангельск - СМЦ Водники - Адмиралтейская 2",

"address": "г. Архангельск, ул.Адмиралтейская, д. 2",

"phone": "8 (818) 241-10-09",

"longitude": 40.513912,

"latitude": 64.572787,

"schedule": "Пн-Пт 8:30-19:00 ",

"metro": "",

"hub": false,

"region": "BASE",

"operating_mode": [

{

"Понедельник": "[08:30,19:00]"

},

{

"Вторник": "[08:30,19:00]"

},

{

"Среда": "[08:30,19:00]"

},

{

"Четверг": "[08:30,19:00]"

},

{

"Пятница": "[08:30,19:00]"

}

]

},

{

"id": "318",

"is_active": true,

"is_point_issue": true,

"is_shipment": true,

"name": "Аптека МК - Архангельск - Титан-Арена - Воскресенская 20",

"address": "г. Архангельск, ул. Воскресенская, д. 20",

"phone": "8 (818) 265-03-25",

"longitude": 40.535031,

"latitude": 64.541949,

"schedule": "Пн-Вс 10:00-21:00",

"metro": "",

"hub": false,

"region": "BASE",

"operating_mode": [

{

"Понедельник": "[10:00,21:00]"

},

{

"Вторник": "[10:00,21:00]"

},

{

"Среда": "[10:00,21:00]"

},

{

"Четверг": "[10:00,21:00]"

},

{

"Пятница": "[10:00,21:00]"

},

{

"Суббота": "[10:00,21:00]"

},

{

"Воскресенье": "[10:00,21:00]"

}

]

},

{

"id": "330",

"is_active": true,

"is_point_issue": true,

"is_shipment": true,

"name": "Аптека МК - Архангельск - ГП №14 - Рейдовая 3",

"address": "г. Архангельск, ул. Рейдовая, д. 3",

"phone": "8 (818) 229-54-76",

"longitude": 40.601946,

"latitude": 64.493686,

"schedule": "Пн-Пт 8:00-19:00",

"metro": "",

"hub": false,

"region": "BASE",

"operating_mode": [

{

"Понедельник": "[08:00,19:00]"

},

{

"Вторник": "[08:00,19:00]"

},

{

"Среда": "[08:00,19:00]"

},

{

"Четверг": "[08:00,19:00]"

},

{

"Пятница": "[08:00,19:00]"

}

]

},

{

"id": "33115",

"is_active": true,

"is_point_issue": true,

"is_shipment": true,

"name": "ДА - Северодвинск - Ломоносова 88",

"address": "г. Северодвинск, ул. Ломоносова, д. 88",

"phone": "8 (8184) 51-05-58",

"longitude": 39.806677,

"latitude": 64.554526,

"schedule": "Пн-Пт 09:00-21:00 Сб-Вс: 09:00-20:00",

"metro": "",

"hub": false,

"region": "SEVSK",

"operating_mode": [

{

"Понедельник": "[09:00,21:00]"

},

{

"Вторник": "[09:00,21:00]"

},

{

"Среда": "[09:00,21:00]"

},

{

"Четверг": "[09:00,21:00]"

},

{

"Пятница": "[09:00,21:00]"

},

{

"Суббота": "[09:00,20:00]"

},

{

"Воскресенье": "[09:00,20:00]"

}

]

},

{

"id": "335",

"is_active": true,

"is_point_issue": true,

"is_shipment": true,

"name": "Аптека МК - Архангельск - Семашко - наб. Северной Двины 66",

"address": "г. Архангельск, наб. Северной Двины, д. 66",

"phone": "8 (818) 220-54-21",

"longitude": 40.525706,

"latitude": 64.532761,

"schedule": "Пн-Пт 8:00-17:00",

"metro": "",

"hub": false,

"region": "BASE",

"operating_mode": [

{

"Понедельник": "[08:00,17:00]"

},

{

"Вторник": "[08:00,17:00]"

},

{

"Среда": "[08:00,17:00]"

},

{

"Четверг": "[08:00,17:00]"

},

{

"Пятница": "[08:00,17:00]"

}

]

},

{

"id": "339",

"is_active": true,

"is_point_issue": true,

"is_shipment": true,

"name": "Аптека МК - Березник - П.Виноградова 165 к 2",

"address": "п. Березник, ул.П.Виноградова, д. 165, кор. 2",

"phone": "8 (921) 494-25-13",

"longitude": 42.699495,

"latitude": 62.8584,

"schedule": "Пн-Пт 8:00-18:00 Сб-Вс: 10:00-16:00",

"metro": "",

"hub": false,

"region": "BEREZNIK",

"operating_mode": [

{

"Понедельник": "[08:00,18:00]"

},

{

"Вторник": "[08:00,18:00]"

},

{

"Среда": "[08:00,18:00]"

},

{

"Четверг": "[08:00,18:00]"

},

{

"Пятница": "[08:00,18:00]"

},

{

"Суббота": "[10:00,16:00]"

},

{

"Воскресенье": "[10:00,16:00]"

}

]

},

{

"id": "341",

"is_active": true,

"is_point_issue": true,

"is_shipment": true,

"name": "ДА - Архангельск - Тимме 2",

"address": "г. Архангельск, ул. Тимме, д. 2",

"phone": "8 (818) 220-28-77",

"longitude": 40.572221,

"latitude": 64.540576,

"schedule": "Пн-Пт 09:00-21:00 Сб-Вс: 09:00-20:00",

"metro": "",

"hub": false,

"region": "BASE",

"operating_mode": [

{

"Понедельник": "[09:00,21:00]"

},

{

"Вторник": "[09:00,21:00]"

},

{

"Среда": "[09:00,21:00]"

},

{

"Четверг": "[09:00,21:00]"

},

{

"Пятница": "[09:00,21:00]"

},

{

"Суббота": "[09:00,20:00]"

},

{

"Воскресенье": "[09:00,20:00]"

}

]

},

{

"id": "342",

"is_active": true,

"is_point_issue": true,

"is_shipment": true,

"name": "ДА - Архангельск - Тимме 23",

"address": "г. Архангельск, ул. Тимме, д. 23",

"phone": "8 (818) 221-24-52",

"longitude": 40.556267,

"latitude": 64.552273,

"schedule": "Пн-Пт 09:00-21:00 Сб-Вс: 09:00-20:00",

"metro": "",

"hub": false,

"region": "BASE",

"operating_mode": [

{

"Понедельник": "[09:00,21:00]"

},

{

"Вторник": "[09:00,21:00]"

},

{

"Среда": "[09:00,21:00]"

},

{

"Четверг": "[09:00,21:00]"

},

{

"Пятница": "[09:00,21:00]"

},

{

"Суббота": "[09:00,20:00]"

},

{

"Воскресенье": "[09:00,20:00]"

}

]

},

{

"id": "350",

"is_active": true,

"is_point_issue": true,

"is_shipment": true,

"name": "Аптека МК - Архангельск - КВД - Сибиряковцев 2 к 1",

"address": "г. Архангельск, пр.Сибиряковцев, д. 2, к. 1",

"phone": "8 (8182) 24-04-36",

"longitude": 40.54308,

"latitude": 64.563216,

"schedule": "Пн-Пт 8:00-18:00 ",

"metro": "",

"hub": false,

"region": "BASE",

"operating_mode": [

{

"Понедельник": "[08:00,18:00]"

},

{

"Вторник": "[08:00,18:00]"

},

{

"Среда": "[08:00,18:00]"

},

{

"Четверг": "[08:00,18:00]"

},

{

"Пятница": "[08:00,18:00]"

}

]

},

{

"id": "843",

"is_active": true,

"is_point_issue": true,

"is_shipment": true,

"name": "ДА - Шенкурск - Ленина 17",

"address": "г. Шенкурск, ул. Ленина, д. 17",

"phone": "8 (818) 514-00-65",

"longitude": 42.902478,

"latitude": 62.103179,

"schedule": "Пн-Пт 8:00-20:00  Сб-Вс 09:00-18:00",

"metro": "",

"hub": false,

"region": "SHENKURSK",

"operating_mode": [

{

"Понедельник": "[08:00,20:00]"

},

{

"Вторник": "[08:00,20:00]"

},

{

"Среда": "[08:00,20:00]"

},

{

"Четверг": "[08:00,20:00]"

},

{

"Пятница": "[08:00,20:00]"

},

{

"Суббота": "[09:00,18:00]"

},

{

"Воскресенье": "[09:00,18:00]"

}

]

},

{

"id": "845            ",

"is_active": true,

"is_point_issue": true,

"is_shipment": true,

"name": "ДА - Урдома - К.Либкнехта 41А",

"address": "п. Урдома, ул. К.Либкнехта, д.41 лит. А",

"phone": "8 (921) 085-13-52",

"longitude": 48.529992,

"latitude": 61.759456,

"schedule": "Пн-Пт: 9:00-20:00 Сб-Вс: 09:00-18:00",

"metro": "",

"hub": false,

"region": "URDOMA",

"operating_mode": [

{

"Понедельник": "[09:00,20:00]"

},

{

"Вторник": "[09:00,20:00]"

},

{

"Среда": "[09:00,20:00]"

},

{

"Четверг": "[09:00,20:00]"

},

{

"Пятница": "[09:00,20:00]"

},

{

"Суббота": "[09:00,18:00]"

},

{

"Воскресенье": "[09:00,18:00]"

}

]

},

{

"id": "post_1284",

"is_active": true,

"is_point_issue": false,

"is_shipment": false,

"name": "ПУЛЬС (Северодвинск)",

"address": "150030, Ярославская обл, Ярославль г, Пожарского ул, дом № 9",

"phone": "",

"longitude": "",

"latitude": "",

"schedule": "",

"metro": "",

"hub": false,

"region": "SEVSK"

},

{

"id": "post_1285",

"is_active": true,

"is_point_issue": false,

"is_shipment": false,

"name": "ПУЛЬС (Мирный)",

"address": "150030, Ярославская обл, Ярославль г, Пожарского ул, дом № 9",

"phone": "",

"longitude": "",

"latitude": "",

"schedule": "",

"metro": "",

"hub": false,

"region": "MIRNIY"

},

{

"id": "post_1286",

"is_active": true,

"is_point_issue": false,

"is_shipment": false,

"name": "ПУЛЬС (Архангельск)",

"address": "150030, Ярославская обл, Ярославль г, Пожарского ул, дом № 9",

"phone": "",

"longitude": "",

"latitude": "",

"schedule": "",

"metro": "",

"hub": false,

"region": "BASE"

},

{

"id": "post_1287",

"is_active": true,

"is_point_issue": false,

"is_shipment": false,

"name": "ПУЛЬС (Шенкурск)",

"address": "150030, Ярославская обл, Ярославль г, Пожарского ул, дом № 9",

"phone": "",

"longitude": "",

"latitude": "",

"schedule": "",

"metro": "",

"hub": false,

"region": "SHENKURSK"

},

{

"id": "post_1288",

"is_active": true,

"is_point_issue": false,

"is_shipment": false,

"name": "ПУЛЬС (Вельск)",

"address": "150030, Ярославская обл, Ярославль г, Пожарского ул, дом № 9",

"phone": "",

"longitude": "",

"latitude": "",

"schedule": "",

"metro": "",

"hub": false,

"region": "VELSK"

},

{

"id": "post_1289",

"is_active": true,

"is_point_issue": false,

"is_shipment": false,

"name": "ПУЛЬС (Няндома)",

"address": "150030, Ярославская обл, Ярославль г, Пожарского ул, дом № 9",

"phone": "",

"longitude": "",

"latitude": "",

"schedule": "",

"metro": "",

"hub": false,

"region": "NYANDOMA"

},

{

"id": "post_1290",

"is_active": true,

"is_point_issue": false,

"is_shipment": false,

"name": "ПУЛЬС (Коноша)",

"address": "150030, Ярославская обл, Ярославль г, Пожарского ул, дом № 9",

"phone": "",

"longitude": "",

"latitude": "",

"schedule": "",

"metro": "",

"hub": false,

"region": "KONOSHA"

},

{

"id": "post_1291",

"is_active": true,

"is_point_issue": false,

"is_shipment": false,

"name": "ПУЛЬС (Каргополь)",

"address": "150030, Ярославская обл, Ярославль г, Пожарского ул, дом № 9",

"phone": "",

"longitude": "",

"latitude": "",

"schedule": "",

"metro": "",

"hub": false,

"region": "KARGOPOL"

},

{

"id": "post_1292",

"is_active": true,

"is_point_issue": false,

"is_shipment": false,

"name": "ПУЛЬС (Березник)",

"address": "150030, Ярославская обл, Ярославль г, Пожарского ул, дом № 9",

"phone": "",

"longitude": "",

"latitude": "",

"schedule": "",

"metro": "",

"hub": false,

"region": "BEREZNIK"

},

{

"id": "post_1293",

"is_active": true,

"is_point_issue": false,

"is_shipment": false,

"name": "ПУЛЬС (Савинский)",

"address": "150030, Ярославская обл, Ярославль г, Пожарского ул, дом № 9",

"phone": "",

"longitude": "",

"latitude": "",

"schedule": "",

"metro": "",

"hub": false,

"region": "SAVINSKIY"

},

{

"id": "post_1294",

"is_active": true,

"is_point_issue": false,

"is_shipment": false,

"name": "ПУЛЬС (Плесецк)",

"address": "150030, Ярославская обл, Ярославль г, Пожарского ул, дом № 9",

"phone": "",

"longitude": "",

"latitude": "",

"schedule": "",

"metro": "",

"hub": false,

"region": "PLESETSK"

},

{

"id": "post_1295",

"is_active": true,

"is_point_issue": false,

"is_shipment": false,

"name": "КАТРЕН АО НПК (Холмогоры)",

"address": "630117, Новосибирская обл, Новосибирск г, Тимакова ул, дом № 4",

"phone": "",

"longitude": "",

"latitude": "",

"schedule": "",

"metro": "",

"hub": false,

"region": "KHOLMOGORY"

},

{

"id": "post_1296",

"is_active": true,

"is_point_issue": false,

"is_shipment": false,

"name": "ПУЛЬС (Котлас)",

"address": "150030, Ярославская обл, Ярославль г, Пожарского ул, дом № 9",

"phone": "",

"longitude": "",

"latitude": "",

"schedule": "",

"metro": "",

"hub": false,

"region": "KOTLAS"

},

{

"id": "post_1297",

"is_active": true,

"is_point_issue": false,

"is_shipment": false,

"name": "ПУЛЬС (Коряжма)",

"address": "150030, Ярославская обл, Ярославль г, Пожарского ул, дом № 9",

"phone": "",

"longitude": "",

"latitude": "",

"schedule": "",

"metro": "",

"hub": false,

"region": "KORYAZHMA"

}

]
